{
  "type": "AirportsCollection",
  "airports": [
    {
      "text": "SAUDI",
      "size": 1.0,
      "country": "Saudi Arabia",
      "city": "Makkah",
      "lat": "21.39681552599445",
      "lng": "39.85860234213086"
    },
    {
      "text": "TUR",
      "size": 1.0,
      "country": "Turkiye",
      "city": "Istanbul",
      "lat": "41.01412990477205",
      "lng": "28.981967048801092"
    },
    {
      "text": "PAK",
      "size": 1.0,
      "country": "Pakistan",
      "city": "Karachi",
      "lat": "24.8607",
      "lng": "67.0011"
    },
    {
      "text": "TAS",
      "size": 1.0,
      "country": "Uzbekistan",
      "city": "Tashkent",
      "lat": "41.266666666667",
      "lng": "69.366666666667"
    },
    {
      "text": "ALA",
      "size": 1.0,
      "country": "Kazakhstan",
      "city": "Almaty",
      "lat": "43.35",
      "lng": "75.033333333333"
    },
    {
      "text": "ICN",
      "size": 1.0,
      "country": "South Korea",
      "city": "Incheon",
      "lat": "37.472222222222",
      "lng": "126.60833333333"
    },
    {
      "text": "KJA",
      "size": 1.0,
      "country": "Russia",
      "city": "Krasnoyarsk",
      "lat": "56.05",
      "lng": "92.9"
    },
    {
      "text": "OVB",
      "size": 1.0,
      "country": "Russia",
      "city": "Novosibirsk",
      "lat": "55.033333333333",
      "lng": "83"
    },
    {
      "text": "KUL",
      "size": 1.0,
      "country": "Malaysia",
      "city": "Kuala-Lumpur",
      "lat": "3.11666666666",
      "lng": "101.7"
    },
    {
      "text": "SIN",
      "size": 1.0,
      "country": "Singapore",
      "city": "Singapore",
      "lat": "1.2916666666667",
      "lng": "103.85"
    },
    {
      "text": "DPS",
      "size": 1.0,
      "country": "Indonesia",
      "city": "Denpasar",
      "lat": "-8.75",
      "lng": "115.16666666667"
    },
    {
      "text": "DMK",
      "size": 1.0,
      "country": "Thailand",
      "city": "Bangkok",
      "lat": "13.9255",
      "lng": "100.5923"
    },
    {
      "text": "BKK",
      "size": 1.0,
      "country": "Thailand",
      "city": "",
      "lat": "13.6900",
      "lng": "100.7501"
    },
    {
      "text": "CAN",
      "size": 1.0,
      "country": "Canada",
      "city": "Toronto",
      "lat": "43.6532",
      "lng": "-79.3832"
    },
    {
      "text": "ENG",
      "size": 1.0,
      "country": "England",
      "city": "London",
      "lat": "51.5072",
      "lng": "0.1276"
    },
    {
      "text": "US",
      "size": 1.0,
      "country": "USA",
      "city": "New York",
      "lat": "40.71194586600765",
      "lng": "-74.00303819498384"
    },
    {
      "text": "AUS",
      "size": 1.0,
      "country": "Australia",
      "city": "Sydney",
      "lat": "-33.862631033298605",
      "lng": "151.19148208326877"
    },
    {
      "text": "SA",
      "size": 1.0,
      "country": "South Africa",
      "city": "Cape Town",
      "lat": "-33.345102806447244",
      "lng": "19.438522338325452"
    }
  ]
}